,City,Cloudiness,Country,Date,Humidity,Lat,Lng,Max Temp,Wind Speed
0,Monrovia,80,LR,1595793344,78,6.3,-10.8,76.66,12.5
1,Bluff,0,NZ,1595792824,85,-46.6,168.33,42.24,11.5
2,Oddur,18,SO,1595793344,73,4.12,43.89,73.96,12.06
3,Ushuaia,40,AR,1595793009,90,-54.8,-68.3,33.8,20.8
4,Bathsheba,59,BB,1595793094,77,13.22,-59.52,83.12,17.09
5,Hermanus,14,ZA,1595793019,77,-34.42,19.23,52.0,1.99
6,Vaini,40,TO,1595793012,94,-21.2,-175.2,68.0,5.82
7,Ponta do Sol,20,PT,1595792705,64,32.67,-17.1,73.4,13.87
8,Paamiut,5,GL,1595793265,89,61.99,-49.67,46.15,1.14
9,Provideniya,75,RU,1595793043,76,64.38,-173.3,48.2,6.71
10,Mount Isa,0,AU,1595793346,53,-20.73,139.5,50.0,10.85
11,Cherskiy,14,RU,1595793038,36,68.75,161.3,75.97,15.7
12,Port Elizabeth,73,ZA,1595793011,71,-33.92,25.57,57.2,8.05
13,Ilulissat,100,GL,1595793055,93,69.22,-51.1,44.6,8.05
14,Ormara,100,PK,1595793151,84,25.21,64.64,84.45,16.04
15,New Norfolk,100,AU,1595793014,82,-42.78,147.06,43.0,2.71
16,Rome,40,US,1595792525,51,43.21,-75.46,84.99,9.17
17,San Patricio,40,MX,1595793165,75,19.22,-104.7,89.6,9.17
18,Kumul,0,CN,1595793127,19,42.8,93.45,83.5,18.45
19,Venezuela,100,VE,1595793347,67,8.0,-66.0,84.58,7.94
20,Nchelenge,20,ZM,1595793348,54,-9.35,28.73,66.15,7.23
21,Punta Arenas,20,CL,1595793007,64,-53.15,-70.92,39.2,19.46
22,Albany,0,US,1595793016,29,42.6,-73.97,91.99,9.91
23,Aksay,82,RU,1595793348,26,47.26,39.87,80.6,17.9
24,Saint Paul Harbor,75,US,1595793028,63,57.79,-152.41,60.8,10.29
25,Thompson,90,CA,1595792729,93,55.74,-97.86,59.0,9.17
26,Airai,67,TL,1595793011,85,-8.93,125.41,53.46,3.87
27,Carnarvon,0,AU,1595793041,100,-24.87,113.63,53.6,5.82
28,Forsytheganj,92,BY,1595793262,92,52.63,29.73,64.06,6.02
29,Ishinomaki,100,JP,1595793350,96,38.42,141.3,68.14,5.23
30,Hilo,1,US,1595793003,69,19.73,-155.09,82.4,5.82
31,Pavino,7,RU,1595793350,94,59.11,46.14,56.46,3.22
32,Cape Town,20,ZA,1595793014,71,-33.93,18.42,55.99,21.92
33,Port Macquarie,94,AU,1595793153,99,-31.43,152.92,51.01,8.93
34,Bredasdorp,16,ZA,1595793024,71,-34.53,20.04,50.0,3.36
35,Chokurdakh,100,RU,1595792856,82,70.63,147.92,44.64,11.9
36,Tuktoyaktuk,40,CA,1595793029,67,69.45,-133.04,62.6,9.17
37,Bubaque,100,GW,1595793351,84,11.28,-15.83,79.74,12.73
38,Bowen,0,AU,1595793351,93,-20.02,148.23,62.01,10.38
39,Charagua,0,BO,1595793352,35,-19.8,-63.22,75.24,11.79
40,Anloga,20,GH,1595793352,88,5.79,0.9,75.2,10.29
41,Severo-Kuril'sk,99,RU,1595793154,91,50.68,156.12,51.12,16.37
42,Talnakh,83,RU,1595793060,93,69.49,88.4,44.6,17.9
43,Port Blair,99,IN,1595793070,76,11.67,92.75,82.45,2.8
44,Eyl,8,SO,1595793353,59,7.98,49.82,81.66,16.84
45,Mataura,0,NZ,1595792713,90,-46.19,168.86,34.54,2.62
46,Esperance,91,AU,1595793141,93,-33.87,121.9,46.4,12.75
47,Port Hedland,5,AU,1595793142,24,-20.32,118.57,57.2,9.17
48,Harper,80,LR,1595792934,77,4.38,-7.72,75.65,9.55
49,Jamestown,75,US,1595793030,57,42.1,-79.24,84.99,9.17
50,Huarmey,2,PE,1595792776,65,-10.07,-78.15,67.1,11.81
51,Isangel,28,VU,1595793145,83,-19.55,169.27,73.53,15.7
52,Katsuura,75,JP,1595792752,94,35.13,140.3,77.0,12.75
53,Pisco,40,PE,1595793049,72,-13.7,-76.22,64.99,11.41
54,Bengkulu,73,ID,1595793094,85,-3.8,102.27,74.64,4.63
55,Avarua,98,CK,1595792843,83,-21.21,-159.78,71.6,8.05
56,Kamsack,20,CA,1595793355,46,51.57,-101.9,73.4,24.16
57,Beringovskiy,69,RU,1595793356,69,63.05,179.32,63.05,5.44
58,Lodwar,12,KE,1595793356,62,3.12,35.6,76.82,5.21
59,Santa Maria,0,BR,1595793356,55,-29.68,-53.81,62.6,9.17
60,Laurel,1,US,1595793113,33,39.1,-76.85,95.0,5.82
61,Upernavik,92,GL,1595793031,84,72.79,-56.15,45.25,0.89
62,Coyhaique,20,CL,1595793195,48,-45.58,-72.07,39.2,5.82
63,Durango,100,MX,1595793073,59,24.83,-104.83,74.7,16.2
64,East London,94,ZA,1595793031,68,-33.02,27.91,60.93,15.99
65,Torbay,90,CA,1595793157,93,47.67,-52.73,59.0,14.99
66,Hobart,99,AU,1595792979,87,-42.88,147.33,45.0,5.82
67,Shache,85,CN,1595793358,20,38.42,77.24,80.49,8.7
68,Puerto Ayora,20,EC,1595792989,57,-0.74,-90.35,78.8,23.04
69,Itarema,41,BR,1595793251,64,-2.92,-39.92,81.45,15.32
70,Hasaki,75,JP,1595792999,94,35.73,140.83,75.2,6.93
71,Ahipara,0,NZ,1595793086,81,-35.17,173.17,47.19,5.23
72,Haines Junction,52,CA,1595793128,64,60.75,-137.51,56.48,11.59
73,Gobabis,0,NA,1595793359,35,-22.45,18.97,57.2,2.24
74,Bambous Virieux,75,MU,1595793080,73,-20.34,57.76,70.0,16.11
75,Karagay,70,RU,1595793270,79,58.27,54.94,56.95,3.71
76,Touros,40,BR,1595793188,83,-5.2,-35.46,77.0,10.29
77,Tiksi,100,RU,1595793017,94,71.69,128.87,37.06,13.58
78,Saskylakh,100,RU,1595793030,95,71.92,114.08,36.82,19.82
79,Placerville,1,US,1595793361,25,38.73,-120.8,96.01,8.05
80,Kapaa,20,US,1595793004,74,22.08,-159.32,80.6,16.11
81,Lebu,100,CL,1595793021,80,-37.62,-73.65,51.87,10.33
82,George Town,40,MY,1595793063,94,5.41,100.34,80.6,3.53
83,Necochea,100,AR,1595793110,68,-38.55,-58.74,52.0,7.0
84,Iqaluit,40,CA,1595793039,76,63.75,-68.51,53.6,5.82
85,Okha,0,RU,1595793362,90,53.57,142.95,51.03,8.12
86,La Ronge,40,CA,1595793159,53,55.1,-105.28,71.6,14.99
87,Hirado,100,JP,1595793363,95,33.36,129.55,80.01,1.99
88,Mahébourg,75,MU,1595792708,73,-20.41,57.7,69.8,16.11
89,Rikitea,0,PF,1595792995,77,-23.12,-134.97,70.23,18.32
90,Butaritari,0,KI,1595793009,75,3.07,172.79,83.19,14.47
91,Port Alfred,66,ZA,1595793121,69,-33.59,26.89,58.24,14.45
92,Yerbogachën,0,RU,1595793364,92,61.28,108.01,51.26,4.32
93,Gilching,86,DE,1595793364,88,48.1,11.3,63.0,10.29
94,Busselton,49,AU,1595793004,78,-33.65,115.33,62.01,14.79
95,Moose Factory,20,CA,1595793364,55,51.26,-80.61,87.8,6.93
96,Bronte,0,IT,1595793365,69,37.79,14.83,81.0,5.82
97,Kilindoni,55,TZ,1595793365,75,-7.91,39.67,76.98,20.67
98,Arraial do Cabo,20,BR,1595792871,73,-22.97,-42.03,77.0,3.36
99,Mar del Plata,100,AR,1595792951,66,-38.0,-57.56,52.0,14.99
100,Kruisfontein,65,ZA,1595793140,88,-34.0,24.73,54.0,4.07
101,Kapuskasing,40,CA,1595793366,55,49.42,-82.43,86.0,6.93
102,Chui,100,UY,1595793034,82,-33.7,-53.46,51.55,5.12
103,Atuona,4,PF,1595793019,71,-9.8,-139.03,80.24,24.2
104,Te Anau,28,NZ,1595793095,87,-45.42,167.72,35.19,0.83
105,Leningradskiy,58,RU,1595792811,43,69.38,178.42,70.32,16.08
106,Puerto del Rosario,0,ES,1595793074,69,28.5,-13.86,77.0,19.46
107,Saldanha,0,ZA,1595792713,71,-33.01,17.94,53.6,9.17
108,Ribeira Grande,75,PT,1595793029,88,38.52,-28.7,75.2,6.93
109,Cairns,0,AU,1595793368,93,-16.92,145.77,57.99,1.12
110,Gonder,97,ET,1595793368,93,12.6,37.47,56.53,3.15
111,Okmulgee,40,US,1595793135,59,35.62,-95.96,89.6,6.93
112,Saint George,1,US,1595792902,13,37.1,-113.58,100.0,6.93
113,Vila Velha,75,BR,1595793097,78,-20.33,-40.29,78.01,6.93
114,Qaanaaq,0,GL,1595793015,53,77.48,-69.36,47.16,9.17
115,Port Lincoln,0,AU,1595793166,86,-34.73,135.87,52.99,7.36
116,Cap-aux-Meules,75,CA,1595793369,93,47.38,-61.86,66.2,5.82
117,Umluj,90,SA,1595793369,43,25.02,37.27,93.67,11.41
118,Litovko,100,RU,1595793370,94,49.24,135.17,64.45,2.28
119,São Filipe,90,CV,1595793035,85,14.9,-24.5,76.51,5.86
120,Alice Springs,0,AU,1595793361,74,-23.7,133.88,37.4,3.36
121,Yar-Sale,44,RU,1595793158,82,66.83,70.83,48.36,7.92
122,Saint Anthony,75,US,1595793258,69,45.02,-93.22,86.0,10.29
123,Cayenne,91,GF,1595793114,78,4.93,-52.33,80.6,6.93
124,Lagoa,61,PT,1595793107,91,39.05,-27.98,72.66,11.79
125,Sitka,75,US,1595793110,87,57.05,-135.33,55.4,5.82
126,Talara,25,PE,1595793371,76,-4.58,-81.27,66.65,17.6
127,Dunedin,0,NZ,1595793279,76,-45.87,170.5,45.0,5.99
128,Manokwari,100,ID,1595792827,78,-0.87,134.08,79.56,7.02
129,Palmer,40,US,1595792624,38,42.16,-72.33,91.99,12.75
130,Fairbanks,90,US,1595792907,82,64.84,-147.72,64.0,4.18
131,Sayville,75,US,1595793075,66,40.74,-73.08,91.0,16.11
132,Banda Aceh,100,ID,1595793373,79,5.56,95.32,79.25,8.03
133,Bethel,1,US,1595793134,43,41.37,-73.41,91.0,13.87
134,Grand Forks,20,US,1595793366,39,47.93,-97.03,78.8,14.99
135,Mackay,0,AU,1595793373,93,-21.15,149.2,51.8,2.24
136,Salalah,75,OM,1595792716,94,17.02,54.09,78.8,2.24
137,Hithadhoo,100,MV,1595793033,70,-0.6,73.08,82.54,6.8
138,Aklavik,40,CA,1595792759,68,68.22,-135.01,64.4,6.93
139,Saint-Philippe,76,RE,1595793034,77,-21.36,55.77,69.8,5.82
140,Pevek,100,RU,1595793125,66,69.7,170.31,54.43,11.86
141,Havelock,20,US,1595793184,49,34.88,-76.9,93.2,14.99
142,Yelizovo,23,RU,1595793375,100,53.19,158.38,57.2,4.47
143,Nanortalik,58,GL,1595793150,83,60.14,-45.24,46.26,2.77
144,Honningsvåg,9,NO,1595793143,52,70.98,25.97,68.0,11.41
145,Barrow,90,US,1595793055,87,71.29,-156.79,44.6,19.46
146,Ambunti,73,PG,1595793376,98,-4.24,142.84,72.64,0.29
147,Alyangula,46,AU,1595793376,64,-13.85,136.42,69.8,4.7
148,Cidreira,100,BR,1595793078,78,-30.18,-50.21,57.0,14.34
149,Ngara,0,TZ,1595793376,52,-2.51,30.66,61.43,3.58
150,Mednogorsk,0,RU,1595793377,84,51.41,57.59,57.25,5.19
151,Souillac,75,MU,1595793067,73,-20.52,57.52,69.8,16.11
152,Yellowknife,20,CA,1595793139,40,62.46,-114.35,71.6,9.17
153,Nushki,4,PK,1595793378,43,29.55,66.02,83.73,6.85
154,Harsīn,75,IR,1595793378,14,34.27,47.59,89.6,9.17
155,Walvis Bay,0,NA,1595793378,25,-22.96,14.51,75.2,11.41
156,Along,80,IN,1595793378,89,28.17,94.77,74.07,1.3
157,Kilgore,75,US,1595793038,59,32.39,-94.88,89.6,9.17
158,Mayo,40,US,1595793170,46,38.89,-76.51,95.0,6.93
159,Cabo San Lucas,5,MX,1595793079,62,22.89,-109.91,96.8,5.82
160,Kaupanger,75,NO,1595793379,100,61.18,7.24,55.4,18.34
161,San Quintín,5,MX,1595793179,66,30.48,-115.95,74.35,13.98
162,Yangi Marg`ilon,90,UZ,1595793109,57,40.43,71.72,75.2,4.7
163,Geraldton,0,AU,1595793136,87,-28.77,114.6,51.8,11.41
164,Loa Janan,74,ID,1595793380,94,-0.58,117.09,73.24,3.0
165,Ulladulla,90,AU,1595793091,100,-35.35,150.47,59.0,23.04
166,Kaeo,0,NZ,1595793381,3,-35.1,173.78,48.0,1.99
167,Plettenberg Bay,58,ZA,1595793381,68,-34.05,23.37,54.88,2.55
168,Belyy Yar,40,RU,1595793381,77,53.6,91.39,64.4,15.66
169,Nikolskoye,0,RU,1595793081,72,59.7,30.79,59.0,2.24
170,Sola,82,VU,1595793181,83,-13.88,167.55,80.17,24.36
171,Nantucket,40,US,1595793382,78,41.28,-70.1,80.6,19.46
172,Lázaro Cárdenas,41,MX,1595793382,57,17.96,-102.2,88.52,6.55
173,Dingtao,58,CN,1595793382,86,35.07,115.56,68.43,0.87
174,Nieuw Amsterdam,40,SR,1595793383,74,5.88,-55.08,86.0,9.17
175,Prado,21,BR,1595793383,79,-17.34,-39.22,73.4,6.67
176,Clyde River,1,CA,1595792898,76,70.47,-68.59,48.2,3.36
177,Nome,75,US,1595793069,71,64.5,-165.41,59.0,4.7
178,Mocuba,0,MZ,1595793383,96,-16.84,36.99,60.64,2.93
179,Lompoc,8,US,1595793058,68,34.64,-120.46,72.0,16.11
180,Laas,20,IT,1595793140,44,46.62,10.7,80.6,4.7
181,Viedma,76,AR,1595793385,78,-40.81,-63.0,52.0,1.01
182,Metković,94,HR,1595793385,50,43.05,17.65,78.8,6.93
183,Carutapera,13,BR,1595793385,86,-1.2,-46.02,79.27,6.89
184,Whitecourt,20,CA,1595793385,40,54.15,-115.69,71.6,10.29
185,Saquena,89,PE,1595793385,90,-4.67,-73.52,78.6,2.21
186,Kargala,10,RU,1595793386,87,56.62,83.96,55.0,3.27
187,Goundam,42,ML,1595793386,27,16.41,-3.67,99.34,1.9
188,Poum,0,NC,1595793386,81,-20.23,164.02,72.91,18.07
189,Kulhudhuffushi,72,MV,1595793386,73,6.62,73.07,81.84,7.0
190,Caxito,100,AO,1595793387,83,-8.58,13.66,73.4,10.29
191,Lüderitz,0,NA,1595793181,46,-26.65,15.16,71.6,11.41
192,Batagay-Alyta,78,RU,1595793190,59,67.8,130.41,55.98,7.74
193,Kiryat Gat,0,IL,1595793388,70,31.61,34.76,82.99,4.21
194,Wheatley,100,GB,1595793388,77,51.75,-1.14,64.4,8.05
195,Nishihara,40,JP,1595793388,83,26.18,127.76,80.6,6.93
196,Hanting,51,CN,1595793388,85,36.77,119.21,70.45,1.74
197,Karligan,100,PH,1595793389,74,14.97,122.05,82.44,2.95
198,Saint-Joseph,78,RE,1595793389,77,-21.37,55.62,66.2,5.82
199,Chernyshevskiy,7,RU,1595792938,94,63.01,112.47,43.75,2.39
200,Grindavik,75,IS,1595793103,66,63.84,-22.43,53.6,18.34
201,Vargashi,39,RU,1595793390,72,55.36,65.85,54.63,6.78
202,Chicama,2,PE,1595793158,55,-7.84,-79.15,72.09,9.6
203,Havøysund,1,NO,1595793390,52,71.0,24.66,68.0,11.41
204,Codrington,82,AU,1595792693,90,-38.27,141.97,50.31,9.84
205,Sindou,81,BF,1595792808,86,10.67,-5.17,75.54,6.6
206,Panlaitan,55,PH,1595793391,72,12.12,119.85,82.92,1.81
207,Santa Isabel Rio Negro,92,BR,1595793391,67,-0.41,-65.02,84.13,4.43
208,Saryozek,100,KZ,1595793391,34,44.36,77.98,72.45,8.77
209,Tasiilaq,100,GL,1595793069,75,65.61,-37.64,46.4,8.05
210,Labuhan,58,ID,1595793392,85,-6.88,112.21,72.73,6.87
211,Vila Franca do Campo,40,PT,1595793005,78,37.72,-25.43,73.4,10.29
212,Coquimbo,34,CL,1595793136,59,-29.95,-71.34,62.6,13.87
213,Nago,90,JP,1595792808,83,26.59,127.98,80.6,6.93
214,Cabra,0,ES,1595793393,26,37.47,-4.44,96.01,6.71
215,Hobyo,24,SO,1595793393,76,5.35,48.53,78.03,21.99
216,Nabire,99,ID,1595792975,88,-3.37,135.48,75.25,3.04
217,Imbituba,75,BR,1595793394,55,-28.24,-48.67,64.4,9.17
218,Svatove,96,UA,1595793394,50,49.41,38.15,72.52,11.81
219,Bud,40,US,1595793394,66,39.45,-86.18,90.0,4.7
220,Dingle,13,PH,1595793158,88,11.0,122.67,76.44,2.55
221,Castro,100,BR,1595792708,70,-24.79,-50.01,66.25,3.36
222,Ilovka,36,RU,1595793395,58,50.71,38.64,65.61,8.12
223,Westport,1,US,1595793059,43,41.14,-73.36,95.0,14.99
224,Businga,100,CD,1595793396,95,3.33,20.88,68.83,1.25
225,Flinders,100,AU,1595793173,98,-34.58,150.86,62.01,14.0
226,Yashkino,41,RU,1595793396,71,55.87,85.43,57.2,4.47
227,Wilmington,20,US,1595793099,49,34.23,-77.94,93.0,11.41
228,Narsaq,75,GL,1595793164,66,60.92,-46.05,53.6,9.17
229,Faya,40,SA,1595793164,82,18.39,42.45,68.0,9.17
230,Otjiwarongo,0,NA,1595793397,36,-20.46,16.65,56.86,11.79
231,Nouna,1,BF,1595793397,61,12.73,-3.87,83.73,8.68
232,Baghdad,0,IQ,1595793133,25,33.34,44.4,98.6,2.24
233,Khatanga,100,RU,1595793095,88,71.97,102.5,39.11,8.37
234,Jaciara,0,BR,1595793398,22,-15.97,-54.97,90.0,6.35
235,São João da Barra,75,BR,1595793101,69,-21.64,-41.05,77.0,16.11
236,Constitución,100,CL,1595793132,78,-35.33,-72.42,55.49,3.27
237,Union City,1,US,1595793398,60,37.6,-122.02,81.0,10.29
238,Adré,100,TD,1595793399,73,13.47,22.2,77.16,13.06
239,Caravelas,14,BR,1595793168,78,-17.71,-39.25,73.45,5.88
240,Umm Kaddadah,39,SD,1595792957,52,13.6,26.69,85.12,7.0
241,Saint-Augustin,37,CA,1595793399,77,51.23,-58.65,64.72,12.26
242,Loreto,100,MX,1595793400,42,22.27,-101.97,77.97,8.41
243,Waingapu,59,ID,1595793265,82,-9.66,120.26,72.3,12.06
244,Wajir,0,KE,1595792858,54,1.75,40.06,79.63,18.41
245,Anápolis,0,BR,1595793400,32,-16.33,-48.95,84.2,10.29
246,Kangaatsiaq,100,GL,1595793400,94,68.31,-53.46,44.35,16.64
247,Tanabe,100,JP,1595793401,96,33.73,135.37,75.0,7.87
248,Goma,0,CD,1595793401,66,-1.68,29.22,65.21,2.15
249,Padang,40,ID,1595793038,94,-0.95,100.35,75.2,4.7
250,Couëron,0,FR,1595793402,68,47.22,-1.72,66.99,6.93
251,Bandarbeyla,0,SO,1595793129,81,9.49,50.81,77.68,25.21
252,Boa Vista,75,BR,1595793309,59,2.82,-60.67,89.6,5.82
253,Tranås,100,SE,1595793402,93,58.04,14.98,62.6,5.82
254,Muroto-misakicho,99,JP,1595793402,83,33.28,134.15,80.11,10.4
255,Mariehamn,91,AX,1595793403,87,60.1,19.93,60.8,9.17
256,Shimoda,98,JP,1595793403,94,34.67,138.95,70.0,1.01
257,Témiscaming,90,CA,1595793403,74,46.72,-79.1,84.0,12.75
258,Córdoba,0,AR,1595793165,16,-31.41,-64.18,75.99,8.05
259,Vanavara,100,RU,1595793124,90,60.34,102.28,55.87,9.6
260,Fort Saint James,0,CA,1595793404,36,54.43,-124.25,81.12,3.29
261,Sabang,100,ID,1595793404,78,5.89,95.32,81.72,12.3
262,Petropavl,100,KZ,1595793405,88,54.88,69.16,54.3,5.41
263,Pacific Grove,20,US,1595793081,68,36.62,-121.92,73.99,8.05
264,Allāpalli,23,IN,1595793406,79,19.42,80.07,78.87,1.5
265,Jiuquan,39,CN,1595793199,22,39.74,98.52,73.71,14.72
266,Aloleng,40,PH,1595793406,78,16.13,119.78,82.31,4.7
267,North Bend,1,US,1595793278,60,43.41,-124.22,88.0,11.41
268,Seoul,75,KR,1595793171,94,37.57,126.98,75.2,0.29
269,Dhidhdhoo,77,MV,1595793407,73,6.88,73.1,81.95,7.36
270,San Policarpo,27,PH,1595793407,86,12.18,125.51,78.82,3.51
271,Buriti Bravo,3,BR,1595793407,25,-5.84,-43.83,90.19,4.72
272,Orotukan,4,RU,1595793408,53,62.27,151.7,62.31,8.95
273,Vanimo,100,PG,1595793408,82,-2.67,141.3,77.4,5.32
274,Alihe,69,CN,1595793408,90,50.57,123.72,65.73,1.63
275,Half Moon Bay,5,US,1595793167,72,37.46,-122.43,73.0,11.41
276,Envira,22,BR,1595792838,58,-7.3,-70.22,86.7,1.97
277,Daru,100,PG,1595793409,89,-9.08,143.21,76.3,14.83
278,Octeville,90,FR,1595793409,77,49.63,-1.64,63.0,5.82
279,Raudeberg,75,NO,1595793409,93,61.99,5.14,60.8,10.29
280,Henties Bay,0,NA,1595793133,81,-22.12,14.28,62.01,10.16
281,Athabasca,26,CA,1595793158,45,54.72,-113.29,74.14,8.5
282,Cockburn Town,0,TC,1595793254,79,21.46,-71.14,82.96,14.76
283,Malye Derbety,1,RU,1595793410,34,47.95,44.68,75.07,13.6
284,Bambanglipuro,15,ID,1595793410,90,-7.95,110.28,70.66,6.24
285,Tuatapere,1,NZ,1595793178,83,-46.13,167.68,39.0,3.0
286,Orange Cove,1,US,1595793411,40,36.62,-119.31,91.99,4.25
287,Hofn,100,IS,1595792756,70,64.25,-15.21,49.5,15.88
288,Dondo,20,MZ,1595793411,93,-19.61,34.74,62.6,3.36
289,Isiro,96,CD,1595793411,98,2.77,27.62,67.15,1.83
290,Kahului,90,US,1595793028,78,20.89,-156.47,80.6,21.92
291,Korla,2,CN,1595793412,64,41.76,86.15,90.0,4.0
292,São Raimundo Nonato,68,BR,1595793223,37,-9.02,-42.7,84.33,11.63
293,Isla Mujeres,75,MX,1595793412,100,21.23,-86.73,80.01,3.36
294,Decatur,20,US,1595793413,62,39.84,-88.95,91.0,9.17
295,Baharly,0,TM,1595793413,24,38.44,57.43,95.32,1.72
296,Kaitangata,0,NZ,1595793032,84,-46.28,169.85,37.99,1.99
297,Kouroussa,100,GN,1595792918,95,10.65,-9.88,72.25,4.74
298,Gao,60,ML,1595793413,29,16.64,1.64,97.48,9.89
299,Santa Marta,40,CO,1595792835,74,11.24,-74.2,86.0,6.93
300,Progreso,75,MX,1595793155,52,21.28,-89.67,93.2,20.8
301,Warwick,20,US,1595793414,36,41.7,-71.42,97.0,13.87
302,Husavik,90,IS,1595793051,70,66.04,-17.34,48.2,10.29
303,Sindor,61,RU,1595793415,66,62.86,51.89,59.65,1.16
304,Krasnosel'kup,6,RU,1595793415,68,65.7,82.47,48.83,13.94
305,Palm Coast,40,US,1595793415,62,29.59,-81.21,90.0,11.41
306,Raja,83,SS,1595793416,94,8.46,25.68,69.85,4.09
307,Rusape,0,ZW,1595793416,73,-18.53,32.13,46.53,3.47
308,San Vicente,100,AR,1595793121,60,-26.62,-54.13,64.87,2.66
309,Bakchar,14,RU,1595793416,87,57.02,82.07,50.85,3.18
310,Lima,90,PE,1595792772,87,-12.04,-77.03,59.0,5.82
311,Klaksvík,100,FO,1595792703,76,62.23,-6.59,53.6,8.05
312,Nioro,100,GM,1595793417,82,13.35,-15.75,80.74,8.19
313,Dongying,30,CN,1595793417,74,37.46,118.49,73.49,3.2
314,Horconcitos,100,PA,1595793418,86,8.47,-81.8,80.01,0.54
315,Olafsvik,43,IS,1595793178,71,64.89,-23.71,50.02,9.89
316,Fort Oglethorpe,40,US,1595793418,41,34.95,-85.26,93.99,6.93
317,Grafton,1,US,1595793241,40,42.21,-71.69,91.0,13.87
318,Lavrentiya,90,RU,1595793419,61,65.58,-171.0,60.55,16.62
319,Margate,100,GB,1595793419,74,51.38,1.39,64.99,1.99
320,Lorengau,100,PG,1595793100,79,-2.02,147.27,81.21,6.4
321,Kitaibaraki,100,JP,1595793419,97,36.78,140.75,70.0,1.01
322,High Prairie,0,CA,1595793203,52,55.43,-116.49,71.42,9.26
323,Udachny,100,RU,1595793127,81,66.42,112.4,40.46,15.82
324,Fatehpur,76,IN,1595793420,47,25.93,80.8,92.53,4.88
325,Bodden Town,40,KY,1595793420,70,19.28,-81.25,89.6,17.22
326,Dudinka,88,RU,1595793420,93,69.41,86.18,44.6,17.9
327,Northam,100,GB,1595793420,93,51.03,-4.22,63.0,3.0
328,Vao,16,NC,1595793133,83,-22.67,167.48,70.65,21.5
329,Road Town,20,VG,1595793371,70,18.42,-64.62,87.8,13.87
330,Divnomorskoye,61,RU,1595793421,83,44.5,38.14,73.56,2.3
331,Saint-Pierre,77,RE,1595793152,77,-21.34,55.48,66.2,5.82
332,Vostok,0,RU,1595793312,93,46.49,135.88,55.45,3.29
333,Thanh Hoa,100,VN,1595793422,88,19.8,105.77,80.78,1.43
334,Yumen,0,CN,1595793422,22,40.28,97.2,71.64,5.37
335,Ambon City,75,ID,1595793422,83,-3.7,128.18,79.0,8.05
336,Channel-Port aux Basques,100,CA,1595793422,95,47.57,-59.14,61.77,9.91
337,Porto Torres,0,IT,1595793422,65,40.84,8.4,77.0,4.7
338,Ola,19,RU,1595793423,86,59.58,151.28,55.08,2.48
339,Contamana,86,PE,1595793423,76,-7.33,-75.02,76.77,2.51
340,Kavaratti,83,IN,1595793143,81,10.57,72.64,81.82,11.5
341,Broome,1,US,1595793132,35,42.25,-75.83,86.0,10.29
342,Marabu,40,MY,1595793423,94,4.41,114.01,78.8,4.7
343,Yamada,100,JP,1595793424,94,39.47,141.95,67.14,2.37
344,Hamilton,40,US,1595792921,52,39.18,-84.53,93.99,4.7
345,Camacha,40,PT,1595793424,64,33.08,-16.33,71.6,12.75
346,Methóni,0,GR,1595793424,47,36.82,21.7,80.6,8.05
347,Khanbari,69,NP,1595793425,76,27.37,87.2,74.16,1.25
348,Kavieng,100,PG,1595793048,77,-2.57,150.8,81.99,7.36
349,Mayumba,99,GA,1595793425,79,-3.43,10.66,73.62,4.9
350,The Valley,75,AI,1595793425,66,18.22,-63.06,87.8,14.99
351,Berea,75,US,1595793309,48,41.37,-81.85,89.01,9.17
352,Green River,1,US,1595793426,19,41.53,-109.47,80.6,5.99
353,Longyearbyen,0,SJ,1595793037,72,78.22,15.64,60.8,11.41
354,Villacarrillo,0,ES,1595793426,28,38.12,-3.08,95.0,3.36
355,Tigil',0,RU,1595793160,76,57.8,158.67,53.31,4.97
356,La Palma,1,US,1595793427,54,33.85,-118.05,88.0,5.82
357,Meulaboh,100,ID,1595792900,88,4.14,96.13,75.99,3.85
358,Øksfjord,20,NO,1595793427,72,70.24,22.35,64.4,9.17
359,Rawlins,1,US,1595793427,17,41.79,-107.24,84.2,9.17
360,Koundara,100,GN,1595793428,96,12.48,-13.3,74.84,8.32
361,Barlinek,1,PL,1595793428,89,52.99,15.22,64.0,1.01
362,Riberalta,59,BO,1595793428,33,-10.98,-66.1,87.31,3.13
363,Dikson,100,RU,1595793081,91,73.51,80.55,38.43,14.94
364,Ürümqi,5,CN,1595793429,34,43.8,87.6,78.8,6.71
365,Pātuli,76,IN,1595793429,76,23.55,88.25,84.76,7.56
366,Connersville,24,US,1595793429,57,39.64,-85.14,90.0,5.01
367,Ambanja,96,MG,1595793429,68,-13.68,48.45,71.82,1.83
368,Brae,93,GB,1595793161,82,60.4,-1.35,55.4,8.05
369,Flin Flon,75,CA,1595793169,73,54.77,-101.86,69.8,10.29
370,Kloulklubed,75,PW,1595793129,94,7.04,134.26,77.0,4.7
371,Sambava,100,MG,1595793430,88,-14.27,50.17,68.72,14.38
372,Rognan,20,NO,1595793430,45,67.1,15.39,68.0,12.75
373,Luang Prabang,100,LA,1595793431,86,19.89,102.13,75.2,1.52
374,Chumphon,98,TH,1595793431,95,10.33,98.83,73.15,0.87
375,Faanui,60,PF,1595793071,82,-16.48,-151.75,78.64,15.5
376,Mokhotlong,0,LS,1595793431,70,-29.29,29.07,36.32,5.06
377,Sechura,95,PE,1595793120,52,-5.56,-80.82,75.92,13.62
378,Yokadouma,97,CM,1595793432,94,3.52,15.05,68.22,0.96
379,Kulpahār,55,IN,1595793432,48,25.32,79.65,90.05,8.01
380,Samarai,88,PG,1595793433,87,-10.62,150.67,78.6,7.2
381,Lomas de Sargentillo,75,EC,1595793433,65,-1.88,-80.08,80.6,3.36
382,Hong Kong,20,HK,1595792913,74,22.29,114.16,86.0,10.29
383,College,75,US,1595793434,72,64.86,-147.8,64.0,5.82
384,Aykhal,64,RU,1595793299,87,66.0,111.5,35.96,8.32
385,Porto Velho,0,BR,1595793434,46,-8.76,-63.9,89.6,5.82
386,Taoudenni,8,ML,1595793425,10,22.68,-3.98,105.37,10.74
387,Constantine,0,DZ,1595793209,30,36.37,6.61,86.0,4.7
388,Basoko,83,CD,1595793195,93,1.24,23.62,70.65,4.29
389,Zhangye,99,CN,1595793122,21,38.93,100.45,73.65,5.14
390,Batesville,1,US,1595793395,49,35.77,-91.64,91.4,10.29
391,Okříšky,71,CZ,1595793436,74,49.25,15.77,64.99,4.61
392,Shingū,100,JP,1595793436,93,33.73,135.98,73.6,3.29
393,Harrison,90,US,1595793436,94,30.41,-89.04,73.99,4.7
394,Srednekolymsk,68,RU,1595793141,56,67.45,153.68,73.62,19.46
395,Arman',24,RU,1595793436,77,59.7,150.17,56.66,2.73
396,Mto wa Mbu,0,TZ,1595793437,59,-3.35,35.85,65.55,3.42
397,Batagay,69,RU,1595793160,52,67.63,134.63,62.11,12.17
398,Rawson,90,AR,1595793284,75,-43.3,-65.1,44.6,3.36
399,Salina Cruz,100,MX,1595793437,60,16.17,-95.2,88.12,10.58
400,Sobolevo,100,RU,1595793282,90,54.43,31.9,63.48,3.4
401,Orikum,100,AL,1595793438,72,40.33,19.47,72.32,11.36
402,Tamiahua,99,MX,1595793438,66,21.27,-97.45,89.17,16.6
403,Manta,75,EC,1595793438,78,-0.95,-80.73,75.2,6.93
404,Tandaltī,36,SD,1595793438,60,13.02,31.87,84.02,16.87
405,Maceió,40,BR,1595793156,65,-9.67,-35.74,80.6,12.75
406,Taungdwingyi,100,MM,1595793439,80,20.02,95.55,78.82,5.75
407,Evensk,0,RU,1595793155,83,61.95,159.23,54.63,8.77
408,Chul'man,93,RU,1595792869,93,56.85,124.91,58.32,3.89
409,Ponta Delgada,40,PT,1595793439,78,37.73,-25.67,73.4,10.29
410,Jala,100,MX,1595793440,66,21.08,-104.43,79.0,5.26
411,Hokitika,0,NZ,1595793268,76,-42.72,170.97,43.11,5.3
412,Iquitos,75,PE,1595793440,74,-3.75,-73.25,82.4,5.82
413,Rocha,100,UY,1595793090,81,-34.48,-54.33,52.0,7.83
414,Montepuez,92,MZ,1595793440,75,-13.13,39.0,65.93,7.0
415,Atar,0,MR,1595793155,26,20.52,-13.05,96.78,15.46
416,Oakdale,75,US,1595793441,69,44.96,-92.96,84.99,8.05
417,Kamakwie,99,SL,1595793441,97,9.5,-12.23,71.47,4.88
418,Otane,0,NZ,1595793441,88,-39.88,176.63,37.2,1.66
419,Xining,13,CN,1595793441,55,36.62,101.77,56.32,4.34
420,Antofagasta,20,CL,1595793442,67,-23.65,-70.4,59.0,10.29
421,Nur-Sultan,75,KZ,1595793442,87,51.18,71.45,57.2,6.71
422,Gizo Government Station,99,SB,1595793127,79,-8.1,156.84,80.67,7.9
423,Oruzgan,0,AF,1595793442,24,32.83,66.0,68.72,2.08
424,El Tarra,89,CO,1595793442,46,8.58,-73.09,90.48,4.07
425,Nawalgarh,7,IN,1595793443,51,27.85,75.27,88.45,6.33
426,Mandalgovi,0,MN,1595793443,81,45.76,106.27,61.05,10.36
427,Dillon,40,US,1595793443,52,34.42,-79.37,91.99,4.7
428,San Cristobal,20,VE,1595793090,46,7.77,-72.22,91.4,4.7
429,Asău,100,RO,1595793139,82,46.43,26.4,63.0,3.58
430,Aksu,98,CN,1595793173,25,41.12,80.26,84.16,11.21
431,Kuala Lipis,82,MY,1595793444,94,4.18,102.05,73.27,0.2
432,Kaa-Khem,88,RU,1595793444,72,51.68,94.73,59.61,4.65
433,Machalí,90,CL,1595793444,53,-34.18,-70.67,51.8,3.36
434,Katobu,66,ID,1595793445,89,-4.94,122.53,72.52,4.0
435,Verkhnevilyuysk,94,RU,1595793445,94,63.45,120.32,50.86,1.63
436,Bījār,14,IR,1595793445,22,35.87,47.61,70.39,5.95
437,Mitzic,98,GA,1595793445,95,0.78,11.55,68.9,3.65
438,Dinard,75,FR,1595793446,82,48.63,-2.06,64.0,3.36
439,Zelenoborskiy,49,RU,1595793446,89,66.84,32.36,56.59,5.99
440,Lakes Entrance,100,AU,1595793446,97,-37.88,147.98,51.01,9.48
441,Wattegama,100,LK,1595793446,91,6.8,81.48,74.52,5.37
442,Marrakesh,40,MA,1595793447,26,31.63,-8.01,95.0,5.82
443,Kribi,98,CM,1595793447,90,2.95,9.92,75.88,8.7
444,Ejigbo,100,NG,1595793447,96,7.9,4.32,71.6,6.02
445,Portland,1,US,1595792866,37,45.52,-122.68,93.0,6.93
446,Fukuechō,100,JP,1595793448,87,32.69,128.84,79.38,11.54
447,Jining,83,CN,1595793448,88,35.41,116.58,70.14,2.42
448,Hailar,0,CN,1595793448,62,49.2,119.7,65.7,4.09
449,Kyaikkami,100,MM,1595793448,84,16.08,97.57,81.66,8.68
450,Eureka,90,US,1595793172,77,40.8,-124.16,61.0,5.82
451,High Level,20,CA,1595793449,36,58.52,-117.14,75.2,5.82
452,Usogorsk,2,RU,1595793449,61,63.41,48.69,61.27,2.24
453,Teguise,20,ES,1595793449,69,29.06,-13.56,75.2,19.46
454,Steinbach am Taunus,64,DE,1595793449,46,50.17,8.57,71.01,6.93
455,Grand Gaube,100,MU,1595792883,71,-20.01,57.66,70.0,7.0
456,Kenora,5,CA,1595793450,38,49.82,-94.43,77.0,12.75
457,Nizhniy Odes,51,RU,1595793450,62,63.64,54.86,63.1,2.73
458,Los Llanos de Aridane,20,ES,1595793149,73,28.66,-17.92,73.4,16.11
459,Ust-Kuyga,94,RU,1595793450,77,70.02,135.6,49.42,6.33
460,Sinnamary,17,GF,1595793451,78,5.38,-52.95,82.18,8.75
461,Buala,99,SB,1595793134,84,-8.14,159.59,79.81,9.64
462,Nanganga,72,TZ,1595793451,81,-10.38,39.15,67.6,4.12
463,Alofi,58,NU,1595792877,94,-19.06,-169.92,71.6,10.29
464,Zhigalovo,100,RU,1595793451,88,54.81,105.16,59.86,1.97
465,Guerrero Negro,0,MX,1595793094,49,27.98,-114.06,80.11,15.77
466,Fortuna,40,US,1595793452,77,40.6,-124.16,64.4,12.75
467,Vallenar,0,CL,1595793452,14,-28.57,-70.76,80.82,4.9
468,Pierre,1,US,1595793452,26,44.37,-100.35,84.2,10.29
469,Kutum,77,SD,1595793452,57,14.2,24.67,78.4,23.85
470,Patos,100,BR,1595793453,43,-7.02,-37.28,84.81,16.84
471,Tabuk,73,PH,1595793453,85,17.42,121.44,74.52,1.63
472,Alugan,22,PH,1595793453,87,12.22,125.48,78.51,3.27
473,Tromsø,11,NO,1595792920,52,69.65,18.96,64.4,29.97
474,Bukama,57,CD,1595793454,36,-9.2,25.85,67.21,1.72
475,Yermakovskoye,49,RU,1595793454,89,53.28,92.4,58.64,5.21
476,Naze,90,JP,1595793043,83,28.37,129.48,82.4,9.17
477,Bol,78,TD,1595793454,80,13.46,14.71,80.26,21.25
478,Ryōtsu-minato,70,JP,1595793455,100,38.08,138.43,71.6,1.12
479,Auki,85,SB,1595793455,87,-8.77,160.7,77.43,3.42
480,Deputatsky,17,RU,1595793161,80,69.3,139.9,54.57,4.65
481,Sørland,79,NO,1595793455,46,67.67,12.69,69.8,8.05
482,Sovetskiy,61,RU,1595793455,83,61.36,63.58,57.43,5.7
483,Shouguang,44,CN,1595793456,91,36.88,118.74,68.54,3.33
484,Richards Bay,28,ZA,1595793186,74,-28.78,32.04,65.07,9.17
485,Wanning,25,CN,1595793155,86,18.8,110.4,81.25,10.83
486,Glencoe,0,ZA,1595793456,57,-28.18,30.15,44.26,3.47
487,Gushikawa,90,JP,1595793192,83,26.35,127.87,80.6,6.93
488,Batemans Bay,100,AU,1595793457,97,-35.72,150.18,57.99,5.01
489,Kediri,11,ID,1595793439,85,-7.82,112.02,70.45,9.64
490,Sept-Îles,75,CA,1595793124,60,50.2,-66.38,71.6,9.17
491,Ukiah,1,US,1595793457,30,39.15,-123.21,93.99,4.7
492,Mazamari,43,PE,1595793457,51,-11.33,-74.53,82.87,1.21
493,Black Diamond,0,US,1595793458,56,47.31,-122.0,81.0,6.13
494,Vardø,96,NO,1595793097,87,70.37,31.11,55.4,16.11
495,Yulara,0,AU,1595793142,64,-25.24,130.99,39.2,7.54
496,Kodinsk,81,RU,1595793175,94,58.69,99.18,54.3,3.02
497,Nyrob,35,RU,1595793459,67,60.73,56.72,58.51,0.98
498,Fergus Falls,1,US,1595793459,50,46.28,-96.08,77.0,16.11
499,Bone,100,DE,1595793459,95,51.97,12.14,64.99,5.21
500,St. George's,20,GD,1595793459,66,12.06,-61.75,87.8,17.22
501,Khasan,100,RU,1595793169,97,42.43,130.64,65.14,6.29
502,Merauke,100,ID,1595793173,83,-8.47,140.33,77.36,16.13
503,‘Ewa Beach,75,US,1595793460,69,21.32,-158.01,82.4,10.29
504,Cabiguan,17,PH,1595793460,87,12.91,123.73,78.76,3.4
505,Suntar,100,RU,1595793460,94,62.14,117.63,53.13,1.03
506,Kalemie,32,CD,1595793460,61,-5.95,29.19,67.86,3.13
507,Santiago de Cao,13,PE,1595793461,75,-7.96,-79.24,64.22,13.27
508,Athens,0,GR,1595793301,61,37.98,23.72,82.0,1.66
509,Ubari,0,LY,1595793461,15,26.59,12.78,84.49,5.59
510,Ust'-Tarka,0,RU,1595793461,89,55.57,75.7,52.23,4.7
511,Dovers,40,VC,1595793461,70,12.88,-61.18,86.0,10.29
512,Russell,75,US,1595793169,78,32.35,-85.2,90.0,5.82
513,Terney,0,RU,1595793462,80,45.05,136.61,59.2,3.76
514,Malbork,100,PL,1595793462,100,54.04,19.03,64.99,7.47
515,Poso,75,ID,1595793463,67,-1.4,120.75,77.88,6.76
516,Nhulunbuy,40,AU,1595793263,57,-12.23,136.77,75.2,12.75
517,Armidale,100,AU,1595793463,79,-30.52,151.65,43.0,8.01
518,Ambilobe,100,MG,1595793464,80,-13.2,49.05,68.38,2.1
519,Dhārchula,97,IN,1595793464,76,29.85,80.53,69.87,0.65
520,Guarapari,75,BR,1595793464,78,-20.67,-40.5,78.01,6.93
521,Ishim,0,RU,1595793464,78,56.11,69.49,51.31,4.56
522,Santa Cruz de La Palma,20,ES,1595793465,73,28.68,-17.76,73.4,16.11
523,Takoradze,83,GH,1595793465,83,4.88,-1.76,75.25,10.65
524,Bilibino,18,RU,1595793098,39,68.05,166.44,75.43,10.07
525,Makakilo City,75,US,1595793190,69,21.35,-158.09,82.4,10.29
526,Mitsamiouli,98,KM,1595793465,76,-11.38,43.28,76.46,7.18
527,São Geraldo do Araguaia,0,BR,1595793466,25,-6.4,-48.55,94.14,5.95
528,Çorlu,0,TR,1595793466,64,41.16,27.8,68.0,3.36
529,Masunga,0,BW,1595793466,39,-20.62,27.45,50.0,4.7
530,Mbanza-Ngungu,0,CD,1595792924,45,-5.25,14.87,75.67,7.47
531,Ordzhonīkīdze,33,KZ,1595793466,86,52.44,61.74,60.4,7.36
532,Kushima,75,JP,1595793467,88,31.46,131.23,75.2,2.24
533,Grajaú,0,BR,1595793467,27,-5.82,-46.14,92.17,5.17
534,Koslan,3,RU,1595793467,58,63.46,48.9,60.85,2.28
535,Kalanguy,2,RU,1595793467,87,51.02,116.52,63.7,4.21
536,Lazo,82,RU,1595793467,85,43.38,133.9,62.83,2.37
537,Kununurra,21,AU,1595793468,34,-15.77,128.73,64.4,6.93
538,Rio Grande,100,BR,1595793281,58,-32.03,-52.1,59.0,8.05
539,Mount Gambier,75,AU,1595793068,100,-37.83,140.77,48.2,8.05
540,Am Timan,90,TD,1595793468,88,11.03,20.28,74.95,7.16
541,Paita,64,PE,1595793468,69,-5.09,-81.11,68.5,18.39
542,Rio Verde de Mato Grosso,29,BR,1595793469,20,-18.92,-54.84,89.17,6.15
543,Guéret,0,FR,1595793469,64,46.17,1.87,73.0,4.7
544,Dabat,91,ET,1595793208,100,12.98,37.77,53.47,2.26
545,Roald,75,NO,1595793274,87,62.58,6.13,61.0,8.05
546,Nuuk,20,GL,1595792922,55,64.18,-51.72,60.8,8.05
547,Khuzdar,3,PK,1595793471,52,27.74,66.64,82.58,4.74
548,Ferrol,0,ES,1595793471,77,43.48,-8.24,69.01,4.7
549,Kautokeino,20,NO,1595793471,86,69.01,23.04,55.18,8.63
550,Spring Valley,40,US,1595793471,9,36.11,-115.25,102.2,4.7
